[
	{
		"title": "Nhà trọ giá rẻ sinh viên Q3",
		"address": "905 Lê Đức Thọ, Q3, Hồ Chí Minh",
		"longitude": 108.9304994,
		"latitude": 10.4894834
	},
	{
		"title": "Nhà trọ sinh viên giá rẻ Gò Vấp",
		"address": "189/34 Bạch Đằng, Phường 3, Gò Vấp, Thành phố Hồ Chí Minh 008428, Việt Nam",
		"longitude": 106.6726806,
		"latitude": 10.817339
	},
	{
		"title": "Phòng trọ 25m2 đường số 7 phường 3 gò vấp",
		"address": "782/50 Đường Số 7, Phường 3, Gò Vấp, Thành phố Hồ Chí Minh, Việt Nam",
		"longitude": 106.6786432,
		"latitude": 10.812979
	},
	{
		"title": "Phòng trọ 2 phòng ngủ Đ số 7",
		"address": "123/11/A Đ. số 7, Phường 3, Gò Vấp, Thành phố Hồ Chí Minh, Việt Nam",
		"longitude": 106.6832044,
		"latitude": 10.815817
	},
	{
		"title": "Nhà trọ dương quảng hàm",
		"address": "123/951I Hẻm 50/17 D. Quãng Hàm, Phường 3, Gò Vấp, Thành phố Hồ Chí Minh, Việt Nam",
		"longitude": 106.6768723,
		"latitude": 10.8176233
	},
	{
		"title": "nhà trọ sach sẽ giá rẻ nguyễn văn công",
		"address": "8-12 Hẻm 491 Nguyễn Văn Công, Phường 3, Gò Vấp, Thành phố Hồ Chí Minh, Việt Nam",
		"longitude": 106.6757992,
		"latitude": 10.8168753
	},
	{
		"title": "nhà trọ giá rẻ Dương quảng hàm Gò Vấp",
		"address": "157/10K Hẻm 50/17 D. Quãng Hàm, Phường 3, Gò Vấp, Thành phố Hồ Chí Minh, Việt Nam",
		"longitude": 106.6750011,
		"latitude": 10.8193993
	},
	{
		"title": "Nhà trọ giá rẻ 45m2 Nguyễn Oanh",
		"address": "241-214 Nguyễn Oanh, Phường 17, Gò Vấp, Thành phố Hồ Chí Minh, Việt Nam",
		"longitude": 106.6735236,
		"latitude": 10.8404944
	},
	{
		"title": "Phòng trọ có gác quận gò vấp",
		"address": "29/28 Hẻm 226 Nguyễn Văn Lượng, Phường 17, Gò Vấp, Thành phố Hồ Chí Minh, Việt Nam",
		"longitude": 106.6724631,
		"latitude": 10.8404141
	},
	{
		"title": "Phòng trọ xinh xắn sạch sẽ TPHCM",
		"address": "750 Nguyễn Kiệm, Phường 4, Phú Nhuận, Thành phố Hồ Chí Minh, Việt Nam",
		"longitude": 106.6764753,
		"latitude": 10.8099274
	},
	{
		"title": "Phòng mới xây đầy đủ tiện nghi Phu nhuan",
		"address": "5 Hoàng Minh Giám, Phường 9, Phú Nhuận, Thành phố Hồ Chí Minh, Việt Nam",
		"longitude": 106.6747801,
		"latitude": 10.809
	},
	{
		"title": "Ký túc xá cao cấp P3 GV,chỉ từ 400k/t",
		"address": "121 Hẻm 79 Đ. Số 2, Phường 3, Gò Vấp, Thành phố Hồ Chí Minh, Việt Nam",
		"longitude": 106.6757047,
		"latitude": 10.8208309
	},
	{
		"title": "phòng trọ mới 90% kv GV",
		"address": "2 Nguyễn Văn Công, Phường 3, Gò Vấp, Thành phố Hồ Chí Minh, Việt Nam",
		"longitude": 106.6764716,
		"latitude": 10.8163449
	},
	{
		"title": "PHÒNG CAO CẤP FULL NỘI THẤT RẤT ĐẸP Hồng hà Tân Bình",
		"address": "41 Hồng Hà, Phường 2, Tân Bình, Thành phố Hồ Chí Minh, Việt Nam",
		"longitude": 106.6672917,
		"latitude": 10.8137412
	},
	{
		"title": "PHÒNG TRỌ MỚI XÂY RẤT ĐẸP, GIỜ TỰ DO, GẦN DH MO",
		"address": "31/30/1H Lê Lai, Phường 3, Gò Vấp, Thành phố Hồ Chí Minh 70000, Việt Nam",
		"longitude": 106.6805143,
		"latitude": 10.8175662
	},
	{
		"title": "Ky tuc xa Nguyen Kiem Go vap",
		"address": "26 Nguyễn Kiệm, Phường 3, Gò Vấp, Thành phố Hồ Chí Minh, Việt Nam",
		"longitude": 106.6772949,
		"latitude": 10.8187819
	},
	{
		"title": "PHÒNG: FULL NỘI THẤT CAO CẤP, RỘNG ĐẸP NHƯ CĂN HỘ",
		"address": "118-121 Đ. Số 4, Phường 3, Gò Vấp, Thành phố Hồ Chí Minh, Việt Nam",
		"longitude": 106.672779,
		"latitude": 10.8198289
	},
	{
		"title": "phòng cho thuê Dương Quảng Hàm như hình Gò Vấp",
		"address": "94 Hẻm 496 Dương Quảng Hàm, Phường 6, Gò Vấp, Thành phố Hồ Chí Minh, Việt Nam",
		"longitude": 106.6850695,
		"latitude": 10.8375865
	},
	{
		"title": "Phòng gần CV GO Vap",
		"address": "350/18/33B, Đ. Lê Đức Thọ, Phường 6, Gò Vấp, Thành phố Hồ Chí Minh, Việt Nam",
		"longitude": 106.6795968,
		"latitude": 10.8407787
	},
	{
		"title": "Nhà Trọ Thu Hằng",
		"address": "309/1/17 Đ. Lê Đức Thọ, Phường 7, Gò Vấp, Thành phố Hồ Chí Minh 60000, Việt Nam",
		"longitude": 106.6763748,
		"latitude": 10.8393333
	},
	{
		"title": "Nhà Trọ Gia Phúc",
		"address": "106 An Nhơn, Phường 17, Gò Vấp, Thành phố Hồ Chí Minh, Việt Nam",
		"longitude": 106.6776145,
		"latitude": 10.8371537
	},
	{
		"title": "Nhà Trọ Cô Lan",
		"address": "350/64, Tổ 22A Đ. Lê Đức Thọ, Phường 6, Gò Vấp, Thành phố Hồ Chí Minh, Việt Nam",
		"longitude": 106.6788597,
		"latitude": 10.8416527
	},
	{
		"title": "Phòng trọ có gác giá rẻ Gò Vấp",
		"address": "32 Đ. Lê Đức Thọ, P.17, Gò Vấp, Thành phố Hồ Chí Minh, Việt Nam",
		"longitude": 106.6693956,
		"latitude": 10.8439055
	},
	{
		"title": "Nhà Trọ Chung Cư 416/19 Dương Quảng Hàm, Phường 5, Gò Vấp",
		"address": "19 Đ. Dương Quảng Hàm, Phường 5, Gò Vấp, Thành phố Hồ Chí Minh 700000, Việt Nam",
		"longitude": 106.6693956,
		"latitude": 10.8346383
	},
	{
		"title": "Nhà trọ cho thuê The Ruby",
		"address": "14 Đ. Phan Văn Trị, Phường 5, Gò Vấp, Thành phố Hồ Chí Minh, Việt Nam",
		"longitude": 106.6816269,
		"latitude": 10.8282647
	},
	{
		"title": "Nhà Trọ Quang Trung",
		"address": "107/8/14c, Quang Trung, Q, Quang Trung, Phường 10, Gò Vấp, Thành phố Hồ Chí Minh, Việt Nam",
		"longitude": 106.6705003,
		"latitude": 10.8272836
	},
	{
		"title": "Nhà trọ 102/65/35 Lê Văn Thọ",
		"address": "102/65/35 Đ. Lê Văn Thọ, Phường 11, Gò Vấp, Thành phố Hồ Chí Minh 700000, Việt Nam",
		"longitude": 106.6557637,
		"latitude": 10.8404517
	},
	{
		"title": "Nhà trọ 416/39/11 Dương Quảng Hàm",
		"address": "416/39/11 Đ. Dương Quảng Hàm, phường 05, Gò Vấp, Thành phố Hồ Chí Minh 707210, Việt Nam",
		"longitude": 106.681399,
		"latitude": 10.835403
	},
	{
		"title": "Nhà trọ FriendlyHOME ngã 6 GV",
		"address": "158 Lý Thường Kiệt, P.7, Gò Vấp, Thành phố Hồ Chí Minh 700000, Việt Nam",
		"longitude": 106.6742844,
		"latitude": 10.8233185
	},
	{
		"title": "Nhà trọ vui vẻ 44/11",
		"address": "44/11 Đ. Số 8, Phường 11, Gò Vấp, Thành phố Hồ Chí Minh 70000, Việt Nam",
		"longitude": 106.655438,
		"latitude": 10.8356885
	},
	{
		"title": "Nhà trọ Thành Bình Long",
		"address": "11/23A Hẻm 87 Đường Số 27, Phường 6, Gò Vấp, Thành phố Hồ Chí Minh, Việt Nam",
		"longitude": 106.655438,
		"latitude": 10.8356885
	},
	{
		"title": "Phòng trọ Vườn Lài, Q12",
		"address": "Vườn Lài, An Phú Đông, Quận 12, Thành phố Hồ Chí Minh 71516, Việt Nam",
		"longitude": 106.6766318,
		"latitude": 10.8375838
	},
	{
		"title": "Nhà trọ sinh viên Hoàng Gia",
		"address": "52 Lê Lai, Phường 4, Gò Vấp, Thành phố Hồ Chí Minh, Việt Nam",
		"longitude": 106.6766318,
		"latitude": 10.8375838
	},
	{
		"title": "PHÒNG TRỌ GÒ VẤP",
		"address": "12 Thích Bửu Đăng, Phường 1, Gò Vấp, Thành phố Hồ Chí Minh, Việt Nam",
		"longitude": 106.6766318,
		"latitude": 10.8375838
	},
	{
		"title": "Nhà Trọ Sinh Viên Văn Lang",
		"address": "32 Nguyễn Thái Sơn, Phường 5, Gò Vấp, Thành phố Hồ Chí Minh, Việt Nam",
		"longitude": 106.6766318,
		"latitude": 10.8375838
	},
	{
		"title": "Phòng trọ 43/21/4 Vườn Lài",
		"address": "43/21/4 Vườn Lài, An Phú Đông, Quận 12, Thành phố Hồ Chí Minh 700000, Việt Nam",
		"longitude": 106.6686596,
		"latitude": 10.8187703
	},
	{
		"title": "Nhà trọ sinh viên Gò Vấp",
		"address": "891/31c, Nguyễn Kiệm, Phường 3, Gò Vấp, Thành phố Hồ Chí Minh 700000, Việt Nam",
		"longitude": 106.6686596,
		"latitude": 10.8187703
	},
	{
		"title": "Nhà trọ Phan Van Tri",
		"address": "29 Đ. Phan Văn Trị, Phường 11, Bình Thạnh, Thành phố Hồ Chí Minh, Việt Nam",
		"longitude": 106.6686596,
		"latitude": 10.8187703
	},
	{
		"title": "Nhà trọ sinh viên",
		"address": "30/31 Đường Nguyễn Văn Dung, Phường 6, Gò Vấp, Thành phố Hồ Chí Minh, Việt Nam",
		"longitude": 106.6622641,
		"latitude": 10.8498768
	},
	{
		"title": "Nhà trọ Gò Vấp",
		"address": "10 Đ. 53, Phường 14, Gò Vấp, Thành phố Hồ Chí Minh, Việt Nam",
		"longitude": 106.6182244,
		"latitude": 10.8509604
	},
	{
		"title": "Nhà trọ/căn hộ Happiness House",
		"address": "81 Nơ Trang Long, Phường 14, Bình Thạnh, Thành phố Hồ Chí Minh 700000, Việt Nam",
		"longitude": 106.6680696,
		"latitude": 10.8093801
	},
	{
		"title": "Phòng trọ,Ký túc xá giá rẻ Nguyễn Kiệm Phú Nhuận",
		"address": "621 Nguyễn Kiệm, Phường 9, Phú Nhuận, Thành phố Hồ Chí Minh 700000, Việt Nam",
		"longitude": 106.6680696,
		"latitude": 10.8093801
	},
	{
		"title": "Nhà Trọ Anh Hòa Gò Vấp",
		"address": "7 Đ. Số 19, Phường 8, Gò Vấp, Thành phố Hồ Chí Minh, Việt Nam",
		"longitude": 106.6172444,
		"latitude": 10.8390063
	},
	{
		"title": "Nhà Trọ Anh Hòa Gò Vấp",
		"address": "7 Đ. Số 19, Phường 8, Gò Vấp, Thành phố Hồ Chí Minh, Việt Nam",
		"longitude": 106.6172444,
		"latitude": 10.8390063
	},
	{
		"title": "Nhà Trọ L9 Lê Thị Riêng",
		"address": "L9, Đ. Lê Thị Riêng, Thới An, Quận 12, Thành phố Hồ Chí Minh, Việt Nam",
		"longitude": 106.6172444,
		"latitude": 10.8390063
	},
	{
		"title": "Nhà Trọ - Ký Túc Xá 5S Home",
		"address": "228/48D Chiến Thắng, Phường 9, Phú Nhuận, Thành phố Hồ Chí Minh 700000, Việt Nam",
		"longitude": 106.6172444,
		"latitude": 10.8390063
	},
	{
		"title": "Nhà trọ 321 Tân Sơn",
		"address": "321 Tân Sơn, Phường 15, Gò Vấp, Thành phố Hồ Chí Minh, Việt Nam",
		"longitude": 106.6172444,
		"latitude": 10.8390063
	},
	{
		"title": "Nhà Trọ iBOSS An Phú Đông",
		"address": "13 đường An Phú Đông 3, An Phú Đông, Quận 12, Thành phố Hồ Chí Minh, Việt Nam",
		"longitude": 106.6733248,
		"latitude": 10.853841
	},
	{
		"title": "Phòng trọ Cao Thông",
		"address": "819/36 Nguyễn Kiệm, Phường 3, Gò Vấp, Thành phố Hồ Chí Minh, Việt Nam",
		"longitude": 106.6338427,
		"latitude": 10.8290572
	},
	{
		"title": "Cho thuê phòng trọ",
		"address": "51 Thích Bửu Đăng, Phường 1, Gò Vấp, Thành phố Hồ Chí Minh, Việt Nam",
		"longitude": 106.6858093,
		"latitude": 10.8199723
	},
	{
		"title": "PHÒNG TRỌ ANH MINH",
		"address": "Vườn Lài, 289/1D Tổ 4 KP1, An Phú Đông, Quận 12, Thành phố Hồ Chí Minh, Việt Nam",
		"longitude": 106.689615,
		"latitude": 10.8573683
	},
	{
		"title": "Thuê Phòng trọ Phú Nhuận Giá Rẻ",
		"address": "413/21A Nguyễn Kiệm, Phường 9, Phú Nhuận, Thành phố Hồ Chí Minh 700990, Việt Nam",
		"longitude": 106.6764313,
		"latitude": 10.8001494
	}
]
